{
  "version": 0.6,
  "generator": "Overpass API 0.7.62.4 2390de5a",
  "osm3s": {
    "timestamp_osm_base": "2025-02-03T11:44:30Z",
    "timestamp_areas_base": "2025-02-03T05:16:36Z",
    "copyright": "The data included in this document is from www.openstreetmap.org. The data is made available under ODbL."
  },
  "elements": [
    {
      "type": "node",
      "id": 289529117,
      "lat": 60.3507129,
      "lon": 5.336896,
      "tags": {
        "email": "post@trekbergen.no",
        "name": "Trek Bergen",
        "opening_hours": "Mo-Th 10:00-19:00; Fr 10:00-18:00; Sa 10:00-16:00",
        "phone": "+47 55 27 14 50",
        "service:bicycle:repair": "yes",
        "service:bicycle:retail": "yes",
        "shop": "bicycle",
        "website": "https://trekbergen.no/"
      }
    },
    {
      "type": "node",
      "id": 360298302,
      "lat": 60.3855342,
      "lon": 5.3182887,
      "tags": {
        "check_date:opening_hours": "2023-12-06",
        "description": "brukthandel",
        "name": "Miljømarked",
        "opening_hours": "Mo-Fr 10:00-16:30; Sa 11:00-15:00; PH,Su off",
        "shop": "second_hand"
      }
    },
    {
      "type": "node",
      "id": 1470638881,
      "lat": 60.3862669,
      "lon": 5.3324536,
      "tags": {
        "community_centre": "bicycle_maintenance",
        "contact:facebook": "https://www.facebook.com/pedalenbergen",
        "email": "pedalen@bymisjon.no",
        "name": "Pedalen",
        "opening_hours": "Mo, Fr 08:30-16:00; Tu, Th 08:30-17:00; We 08:30-18:00",
        "operator": "Kirkens Bymisjon i Bergen",
        "ownership": "private_nonprofit",
        "phone": "+47 55 61 20 00",
        "service:bicycle:parts": "yes",
        "service:bicycle:pump": "yes",
        "service:bicycle:repair": "yes",
        "service:bicycle:second_hand": "yes",
        "service:bicycle:service": "yes",
        "shop": "bicycle",
        "website": "https://kirkensbymisjon.no/pedalen-sykkelverksted-bergen/",
        "wheelchair": "yes"
      }
    },
    {
      "type": "node",
      "id": 3575013102,
      "lat": 60.4704744,
      "lon": 5.3226843,
      "tags": {
        "branch": "Horisont",
        "brand": "XXL",
        "brand:wikidata": "Q12010840",
        "email": "post.asane@xxl.no",
        "level": "1",
        "name": "XXL",
        "opening_hours": "Mo-Fr 10:00-21:00; Sa 10:00-18:00",
        "payment:bankaxept": "yes",
        "payment:cash": "yes",
        "payment:debit_cards": "yes",
        "phone": "+47 24 08 46 75",
        "service:bicycle:dealer": "yes",
        "service:bicycle:ebike": "yes",
        "service:bicycle:repair": "yes",
        "service:bicycle:retail": "yes",
        "service:bicycle:sales": "yes",
        "shop": "sports",
        "sport": "fitness;table_tennis;soccer;basketball;multi;tennis;gymnastics;shooting;scuba_diving;equestrian;baseball;skateboard;disc_golf;volleyball;athletics;cycling;golf;ice_hockey;ice_skating;running;skiing;handball;swimming;american_football;badminton;climbing",
        "stroller": "yes",
        "website": "https://www.xxl.no/store-finder/sportsbutikk-bergen/asane",
        "wheelchair": "yes"
      }
    },
    {
      "type": "node",
      "id": 3684649521,
      "lat": 60.362588,
      "lon": 5.454787,
      "tags": {
        "email": "bergen@nlmgjenbruk.no",
        "name": "Nlm Gjenbruk Bergen",
        "opening_hours": "We-Fr 12:00-17:00; Sa 11:00-15:00",
        "phone": "+4740443470",
        "shop": "second_hand"
      }
    },
    {
      "type": "node",
      "id": 3946005930,
      "lat": 60.3926603,
      "lon": 5.3216649,
      "tags": {
        "name": "Vitti",
        "opening_hours": "Tu-Th 12:00-19:00; Fr-Sa 12:00-18:00",
        "second_hand": "yes",
        "shop": "clothes"
      }
    },
    {
      "type": "node",
      "id": 3946005947,
      "lat": 60.392856,
      "lon": 5.3215392,
      "tags": {
        "addr:city": "Bergen",
        "addr:housenumber": "1",
        "addr:postcode": "5012",
        "addr:street": "Veiten",
        "clothes": "women;men;workwear;suits;denim",
        "name": "Episode",
        "opening_hours": "Mo-Sa 11:00-19:00",
        "second_hand": "yes",
        "shop": "clothes"
      }
    },
    {
      "type": "node",
      "id": 3946005953,
      "lat": 60.3872358,
      "lon": 5.3288111,
      "tags": {
        "description": "Kjøp og salg av hvitevarer og brunevarer",
        "name": "Nygårdsgaten Brukthandel",
        "opening_hours": "Mo-Fr 10:00-19:30; Sa 10:00-17:30; Su off",
        "shop": "second_hand"
      }
    },
    {
      "type": "node",
      "id": 3964625325,
      "lat": 60.399174,
      "lon": 5.322427,
      "tags": {
        "name": "NMS Gjenbruk Bergen",
        "opening_hours": "Mo-We 10:30-16:30; Th 10:30-17:30; Fr 10:30-16:30; Sa 11:00-15:00",
        "operator": "Det Norske Misjonsselskap",
        "second_hand": "yes",
        "shop": "charity",
        "website": "https://nms.no/butikk/bergen/"
      }
    },
    {
      "type": "node",
      "id": 3984672557,
      "lat": 60.398878,
      "lon": 5.30846,
      "tags": {
        "brand": "Sony",
        "craft": "electronics_repair",
        "name": "Sony Servicekompaniet",
        "repair": "only",
        "shop": "electronics_repair",
        "website": "http://www.servicekompaniet.no/"
      }
    },
    {
      "type": "node",
      "id": 3988480605,
      "lat": 60.4008828,
      "lon": 5.3226783,
      "tags": {
        "check_date:opening_hours": "2023-10-22",
        "name": "Rimelige Hvitevarer",
        "opening_hours": "Mo-Fr 10:00-18:00; Sa 10:00-17:00",
        "second_hand": "yes",
        "shop": "appliance"
      }
    },
    {
      "type": "node",
      "id": 3988501473,
      "lat": 60.3969591,
      "lon": 5.3263675,
      "tags": {
        "opening_hours": "Mo-We 10:30-17:30; Th 10:30-19:00; Fr 10:30-17:00; Sa 10:30-15:00",
        "second_hand": "yes",
        "shop": "comics"
      }
    },
    {
      "type": "node",
      "id": 4086570111,
      "lat": 60.3613502,
      "lon": 5.3509386,
      "tags": {
        "opening_hours": "Th 15:30-17:00; Tu 15:30-17:00",
        "second_hand": "yes",
        "shop": "books"
      }
    },
    {
      "type": "node",
      "id": 4099728387,
      "lat": 60.393835,
      "lon": 5.328073,
      "tags": {
        "contact:facebook": "https://www.facebook.com/secondlovelove",
        "email": "lisa@secondlove.no",
        "name": "Second Love",
        "opening_hours": "Mo-We 11:00-16:00; Th-Fr 11:00-18:00; Sa 11:00-17:00",
        "phone": "+47 413 57 743",
        "second_hand": "yes",
        "shop": "clothes",
        "website": "http://www.secondlove.no/"
      }
    },
    {
      "type": "node",
      "id": 4161392159,
      "lat": 60.388668,
      "lon": 5.330452,
      "tags": {
        "addr:city": "Bergen",
        "addr:housenumber": "14-16",
        "addr:postcode": "5008",
        "addr:street": "Lars Hilles gate",
        "brand": "Fretex",
        "check_date:opening_hours": "2025-01-29",
        "contact:facebook": "https://www.facebook.com/profile.php?id=100049104231501",
        "name": "Fretex Lars Hilles gate",
        "opening_hours": "Mo-Fr 10:00-18:00; Sa 11:00-17:00",
        "phone": "+47 55321486",
        "ref:fretex": "132",
        "second_hand": "yes",
        "shop": "charity",
        "toilets:wheelchair": "no",
        "website": "https://www.fretex.no/handle/finn-butikk/fretex-lars-hillesgate/",
        "wheelchair": "yes"
      }
    },
    {
      "type": "node",
      "id": 4161486173,
      "lat": 60.3751804,
      "lon": 5.3392101,
      "tags": {
        "name": "Mamilla Gjenbruk Bergen",
        "opening_hours": "Mo-Fr 11:00-17:00; Sa 11:00-15:00",
        "operator": "Den Norske Israelsmisjon",
        "second_hand": "only",
        "shop": "second_hand",
        "website": "https://www.israelsmisjonen.no/norge/misjonsbutikken/mamilla?fbclid=IwAR2kFPcl8jgaKBqir9MTfFofAlsbbpMhuOx2J2WcLKG_gotKp_7s49aJIm4"
      }
    },
    {
      "type": "node",
      "id": 4161552886,
      "lat": 60.3721514,
      "lon": 5.346406,
      "tags": {
        "branch": "Klesskapet i bergen",
        "clothes": "women",
        "name": "Det Gule Hus",
        "second_hand": "only",
        "shop": "clothes",
        "website": "https://detgulehus.no/locations/bergen-klesskapet"
      }
    },
    {
      "type": "node",
      "id": 4162069858,
      "lat": 60.3944318,
      "lon": 5.3114323,
      "tags": {
        "name": "Vintage Sisters",
        "opening_hours": "Fr 12:00-17:00; Sa 12:00-16:00; \"by appointment\"",
        "phone": "+47 9719 7274",
        "second_hand": "yes",
        "shop": "clothes"
      }
    },
    {
      "type": "node",
      "id": 4171729440,
      "lat": 60.3902272,
      "lon": 5.3215394,
      "tags": {
        "name": "Bokglede",
        "opening_hours": "Sa 12:00-16:30",
        "second_hand": "yes",
        "shop": "books"
      }
    },
    {
      "type": "node",
      "id": 5139480162,
      "lat": 60.3583782,
      "lon": 5.3674408,
      "tags": {
        "facebook": "https://www.facebook.com/velbevartbruktbutikk/",
        "name": "Vel Bevart Bruktbutikk",
        "opening_hours": "We-Fr 11:00-17:00; Sa 11:00-15:00",
        "phone": "+47 471 76 460",
        "second_hand": "only",
        "shop": "charity"
      }
    },
    {
      "type": "node",
      "id": 5893480259,
      "lat": 60.4080995,
      "lon": 5.3218983,
      "tags": {
        "amenity": "boat_rental",
        "contact:facebook": "https://nb-no.facebook.com/Sandvikenkystlag",
        "name": "Bergen Båtdelering",
        "note": "Bestilling av båtene gjøres via Facebookgruppen – Bergen Båtdelering (lukket gruppe for de som har betalt kontingent/BB faktura). Kano bestilles ved å sende sms til Gerhard på 90870382.",
        "operator": "Sandviken kystlag",
        "website": "https://www.sandvikenkystlag.com/bergen-b%C3%A5tdelering.php"
      }
    },
    {
      "type": "node",
      "id": 6054933076,
      "lat": 60.3948652,
      "lon": 5.3443121,
      "tags": {
        "amenity": "bicycle_rental",
        "bicycle": "mtb",
        "bicycle_rental": "dropoff_point",
        "building": "yes",
        "name": "Fløyen Aktiv",
        "opening_hours": "May-Sep PH,Mo-Su 10:00-15:00",
        "operator": "Fløibanen AS",
        "phone": "+47 47 68 15 05"
      }
    },
    {
      "type": "node",
      "id": 6206106684,
      "lat": 60.4702124,
      "lon": 5.337481,
      "tags": {
        "brand": "Fretex",
        "name": "Fretex Åsane",
        "phone": "+47 55390720",
        "ref:fretex": "145",
        "second_hand": "yes",
        "shop": "charity"
      }
    },
    {
      "type": "node",
      "id": 11012179459,
      "lat": 60.3794122,
      "lon": 5.3467569,
      "tags": {
        "contact:facebook": "https://bir.no/aktuelt/birs-ombruksmarked-hver-tirsdag/",
        "level": "0",
        "name": "Nyverdi – BIRs ombruksmarked",
        "opening_hours": "Tu 14-19",
        "operator": "BIR AS",
        "payment:app": "yes",
        "payment:vipps": "yes",
        "payment:visa": "yes",
        "second_hand": "yes",
        "shop": "second_hand"
      }
    },
    {
      "type": "node",
      "id": 11922337264,
      "lat": 60.3946372,
      "lon": 5.3293386,
      "tags": {
        "contact:instagram": "https://www.instagram.com/oybergen/",
        "name": "ÔY",
        "opening_hours": "Mo-Sa 12:00-18:00",
        "second_hand": "yes",
        "shop": "clothes"
      }
    },
    {
      "type": "node",
      "id": 12087187846,
      "lat": 60.3791975,
      "lon": 5.3443387,
      "tags": {
        "description": "second hand goods free of charge to take - \"freeshop\" - furniture, books, decorations and more",
        "name": "Brukthallen Bergen",
        "opening_hours": "Mo-Fr 15-18",
        "operator": "BIR",
        "second_hand": "yes",
        "shop": "second_hand"
      }
    },
    {
      "type": "node",
      "id": 12184425306,
      "lat": 60.430984,
      "lon": 5.464245,
      "tags": {
        "description": "Bergenbruktpc.no er en del av A2G Bjørkhaug, en arbeidsmarkedsbedrift som holder til på Storaneset 12, 5260 Indre Arna. Vi er en arbeidsmakedsbedrift som tilbyr Arbeidsforberedende Trening (AFT), Varig Tilrettelagt Arbeid (VTA), og praksisplasser. Når du",
        "email": "kontakt@bergenbruktpc.no",
        "name": "Bergen brukt pc",
        "opening_hours": "Mo-Fr 09:00-15:00",
        "operator": "A2G Bjørghaug",
        "phone": "479 76 151",
        "second_hand": "yes",
        "shop": "computer",
        "website": "https://bergenbruktpc.no/"
      }
    },
    {
      "type": "node",
      "id": 12212402786,
      "lat": 60.2952347,
      "lon": 5.3278476,
      "tags": {
        "branch": "Fana",
        "name": "Det Gule Hus",
        "second_hand": "only",
        "shop": "clothes",
        "website": "https://detgulehus.no/locations/fana"
      }
    },
    {
      "type": "node",
      "id": 12212402790,
      "lat": 60.3508917,
      "lon": 5.2774916,
      "tags": {
        "branch": "Fyllingsdalen",
        "fixme": "Vet ikke nøyaktig lokasjon",
        "name": "Det Gule Hus",
        "second_hand": "only",
        "shop": "clothes",
        "website": "https://detgulehus.no/locations/fyllingsdalen"
      }
    },
    {
      "type": "node",
      "id": 12236198730,
      "lat": 60.3847451,
      "lon": 5.331966,
      "tags": {
        "clothes": "women;men",
        "payment:cards": "yes",
        "second_hand": "only",
        "shop": "clothes",
        "website": "https://www.chambr.no/"
      }
    },
    {
      "type": "node",
      "id": 12409128717,
      "lat": 60.3532879,
      "lon": 5.3425365,
      "tags": {
        "name": "Cyclofix",
        "service:bicycle:repair": "yes",
        "shop": "bicycle",
        "website": "https://www.cyclofix.no/"
      }
    },
    {
      "type": "node",
      "id": 12409128718,
      "lat": 60.4047985,
      "lon": 5.322958,
      "tags": {
        "name": "Bici Bergen",
        "service:bicycle:repair": "yes",
        "shop": "bicycle",
        "website": "https://www.bicibergen.no/"
      }
    },
    {
      "type": "node",
      "id": 12435651069,
      "lat": 60.4017274,
      "lon": 5.3168632,
      "tags": {
        "amenity": "bicycle_rental",
        "name": "Bergen Bike Rent",
        "phone": "+ 47 410 68 000",
        "website": "https://www.norwayactive.no/"
      }
    },
    {
      "type": "node",
      "id": 12435651070,
      "lat": 60.3948596,
      "lon": 5.344336,
      "tags": {
        "name": "Fløyen Aktiv",
        "shop": "rental"
      }
    }
  ]
}